{"TransactionId":214,"CustomerId":"test","ProNumber":1000017707,"SCAC":"MOLY","ShipmentId":"D00124497","References":[{"Value":"188557","Qualifier":"RF","AdditionalDescription":null},{"Value":"0000047203","Qualifier":"DO","AdditionalDescription":null},{"Value":"NC-0000047203","Qualifier":"PO","AdditionalDescription":null},{"Value":"F","Qualifier":"KL","AdditionalDescription":null},{"Value":"188557","Qualifier":"PU","AdditionalDescription":null},{"Value":"D00124497","Qualifier":"Ship ID","AdditionalDe scription":null}],"Note":"\nCustomer Notes: INBOUND","Equipment":null,"Shipper":{"Name":"KOCH FOODS, INC","Address1":"2825 Crescent Springs Pike","Address2":"","City":"Erlanger","State":"KY","Zip":"41018","Country":"usa","Code":"ERLKOCH_1","LocalDate":null,"LocalDateTimeZone":null},"Consignee":{"Name":"North Carolina DC","Address1":"Domino's Pizza Distribution LLC","Address2":"3100 Waterfield Dr.","City":"Garner","State":"NC","Zip":"27529","Country":"US","Code":"NC","LocalDate":null,"LocalDateTimeZone":null
},"CurrentLocation":{"ReasonCode":null,"StatusDate":"02/04/2021","StatusTime":"20:42:13","TimeZone":"EST","City":"Erlanger","State":"KY","Zip":"41018","Country":"usa","Latitude":"39.035297","Longitude":"-84.588455","NextStopNumber":"2"},"Stops":[{"StopNum":1,"Reason":"LD","Weight":0,"WeightUnit":null,"Volume":0,"VolumeUnit":null,"Quantity":0,"QuantityUnit":null,"Note":null,"Location":{"Name":"KOCH FOODS, INC","Address1":"2825 Crescent Springs Pike","Address2":"","City":"Erlanger","State":"KY","Zip":"41018",
"Country":"usa","Code":"ERLKOCH_1","Latitude":"39.035297","Longitude":"-84.588455"},"Statuses":[{"StatusCode":"AF","ReasonCode":"NS","StatusDate":"02/04/2021","StatusTime":"20:42:13","TimeZone":"EST"}],"References":[{"Value":"263818","Qualifier":"BM","AdditionalDescription":null},{"Value":"NC-0000047203","Qualifier":"PO","AdditionalDescription":null},{"Value":"BLANK","Qualifier":"IL","AdditionalDescription":null},{"Value":"F","Qualifier":"KL","AdditionalDescription":null},{"Value":"NC","Qualifier":"12","Add
itionalDescription":null},{"Value":"188557","Qualifier":"RF","AdditionalDescription":null},{"Value":"0000047203","Qualifier":"DO","AdditionalDescription":null},{"Value":"263818","Qualifier":"OI1","AdditionalDescription":null},{"Value":"NC-0000047203","Qualifier":"OI2","AdditionalDescription":null},{"Value":"188557","Qualifier":"Load Ref #","AdditionalDescription":null},{"Value":"CCI-2070","Qualifier":"Appt #","AdditionalDescription":null}]},{"StopNum":2,"Reason":"UL","Weight":0,"WeightUnit":null,"Volume":0,
"VolumeUnit":null,"Quantity":0,"QuantityUnit":null,"Note":null,"Location":{"Name":"North Carolina DC","Address1":"Domino's Pizza Distribution LLC","Address2":"1254 Test Dr.","City":"Garner","State":"NC","Zip":"27529","Country":"US","Code":"NC","Latitude":"35.679413","Longitude":"-78.55831"},"Statuses":null,"References":[{"Value":"263818","Qualifier":"BM","AdditionalDescription":null},{"Value":"NC-0000047203","Qualifier":"PO","AdditionalDescription":null},{"Value":"BLANK","Qualifier":"IL","AdditionalDe
scription":null},{"Value":"F","Qualifier":"KL","AdditionalDescription":null},{"Value":"NC","Qualifier":"12","AdditionalDescription":null},{"Value":"188557","Qualifier":"RF","AdditionalDescription":null},{"Value":"0000047203","Qualifier":"DO","AdditionalDescription":null},{"Value":"263818","Qualifier":"OI1","AdditionalDescription":null},{"Value":"NC-0000047203","Qualifier":"OI2","AdditionalDescription":null}]}]}
